{
  "metadata": {
    "service_type": "electrician",
    "location": "Gulshan-e-Iqbal Karachi",
    "city": "Karachi",
    "timestamp": "2026-05-18T12:14:44.757842",
    "total_found": 10,
    "source": "openstreetmap",
    "file": "electrician_gulshan_e_iqbal_kara_20260518_121444.json"
  },
  "providers": [
    {
      "name": "HAMID ELECTRITION",
      "address": "Federal B Area Block 15 Yaseenabad,",
      "city": "Karachi",
      "phone": "",
      "website": "",
      "rating": null,
      "reviews_count": null,
      "lat": 24.9284811,
      "lng": 67.084308,
      "hours": null,
      "category": "electrician",
      "source": "openstreetmap",
      "distance_km": 7.13,
      "osm_id": 12137346693
    },
    {
      "name": "Khalil Bhai Work Shop",
      "address": "V4JM+5WF, Sadat Colony Sadaat Colony Shah Faisal Colony,",
      "city": "Karachi",
      "phone": "",
      "website": "",
      "rating": null,
      "reviews_count": null,
      "lat": 24.8804624,
      "lng": 67.1348988,
      "hours": null,
      "category": "electrician",
      "source": "openstreetmap",
      "distance_km": 4.99,
      "osm_id": 12138080586
    },
    {
      "name": "Mohsin Electric",
      "address": "W3HG+M8G, Block 14 Naseerabad Block 14 Gulberg Town",
      "city": "Karachi",
      "phone": "",
      "website": "",
      "rating": null,
      "reviews_count": null,
      "lat": 24.9292449,
      "lng": 67.075926,
      "hours": null,
      "category": "electrician",
      "source": "openstreetmap",
      "distance_km": 7.98,
      "osm_id": 12159649809
    },
    {
      "name": "Sigma Light Store - سگما لائٹ اسٹور",
      "address": "Shop#5, B-S 16, Urooj Square, Federal B Area Naseerabad Block 14 Gulberg Town,",
      "city": "Karachi",
      "phone": "",
      "website": "",
      "rating": null,
      "reviews_count": null,
      "lat": 24.9356583,
      "lng": 67.0769743,
      "hours": null,
      "category": "electrician",
      "source": "openstreetmap",
      "distance_km": 7.98,
      "osm_id": 12165186953
    },
    {
      "name": "MJ Fancy Lights",
      "address": "16, Federal B Area Naseerabad Block 14 Gulberg Town",
      "city": "کراچی",
      "phone": "",
      "website": "",
      "rating": null,
      "reviews_count": null,
      "lat": 24.9355715,
      "lng": 67.0770496,
      "hours": null,
      "category": "electrician",
      "source": "openstreetmap",
      "distance_km": 7.97,
      "osm_id": 12165186959
    },
    {
      "name": "A.H. Electrical Company",
      "address": "W3PG+4W4, Shahjahan Ave, Federal B Area Naseerabad Block 14 Gulberg Town",
      "city": "Karachi",
      "phone": "",
      "website": "",
      "rating": null,
      "reviews_count": null,
      "lat": 24.935138,
      "lng": 67.0774442,
      "hours": null,
      "category": "electrician",
      "source": "openstreetmap",
      "distance_km": 7.93,
      "osm_id": 12165186967
    },
    {
      "name": "Riaz electric store",
      "address": "Rado Hill View, Safari Rd, Block 16 A Gulistan-e-Johar,",
      "city": "Karachi",
      "phone": "03322696761",
      "website": "",
      "rating": null,
      "reviews_count": null,
      "lat": 24.9132506,
      "lng": 67.1127669,
      "hours": null,
      "category": "electrician",
      "source": "openstreetmap",
      "distance_km": 4.32,
      "osm_id": 12194626273
    },
    {
      "name": "Bring A Solution Private Limited",
      "address": "A-291, Block 2 Gulshan-e-Iqbal",
      "city": "Karachi",
      "phone": "",
      "website": "",
      "rating": null,
      "reviews_count": null,
      "lat": 24.9212649,
      "lng": 67.087045,
      "hours": null,
      "category": "electrician",
      "source": "openstreetmap",
      "distance_km": 6.81,
      "osm_id": 12237223365
    },
    {
      "name": "Rex media group",
      "address": "B-415, Abid Apartments, Abid Town Block 2 Gulshan-e-Iqbal",
      "city": "Karachi",
      "phone": "",
      "website": "",
      "rating": null,
      "reviews_count": null,
      "lat": 24.9247913,
      "lng": 67.0847957,
      "hours": null,
      "category": "electrician",
      "source": "openstreetmap",
      "distance_km": 7.05,
      "osm_id": 12243869333
    },
    {
      "name": "Usama Battery Traders",
      "address": "V5GR+GX8, Muslimabad Malir City Ghazi Dawood Brohi Goth,",
      "city": "Karachi",
      "phone": "",
      "website": "",
      "rating": null,
      "reviews_count": null,
      "lat": 24.8767772,
      "lng": 67.1920267,
      "hours": null,
      "category": "electrician",
      "source": "openstreetmap",
      "distance_km": 6.25,
      "osm_id": 12281622139
    }
  ]
}